name,domain,secondary_domains,city,address,latitude,longitude,website,career_url,linkedin_url,glassdoor_url,known_stack,notes,logo_url
Socomec,Industrie,Energie;IoT;Cybersécurité,Benfeld,"1 rue de Westhouse, 67230 Benfeld",48.3704,7.5939,https://www.socomec.com,https://www.socomec.com/careers,https://www.linkedin.com/company/socomec-group/,,C#;.NET;IoT;Cloud;Cybersécurité;Automatisation industrielle,"Industriel local très pertinent pour software embarqué, IoT, énergie et cybersécurité produit.",
Hager,Industrie,Domotique;IoT;Energie;Cloud,Obernai,"132 boulevard de l'Europe, 67210 Obernai",48.4619,7.5036,https://hagergroup.com,https://hagergroup.com/en/career,https://www.linkedin.com/company/hagergroup/,,IoT;AWS;Azure;API REST;MQTT;KNX;Zigbee;Edge Computing,"Groupe industriel majeur avec équipes digitales, software, IoT et systèmes connectés à Obernai.",
Lilly France,Santé,Pharmaceutique;Industrie;Data;OT,Fegersheim,"2 rue du Colonel Lilly, 67640 Fegersheim",48.5027,7.6987,https://www.lilly.com,https://careers.lilly.com,https://www.linkedin.com/company/eli-lilly-and-company/,,MES;OT;Automatisation industrielle;Data;GxP;CSV,"Site pharmaceutique local important avec besoins IT industriels, automatisation, conformité et data.",
Merck Life Science,Santé,Biotech;Industrie;Automatisation;Data,Molsheim,"39 route Industrielle de la Hardt, 67120 Molsheim",48.5418,7.5297,https://www.merckgroup.com,https://www.merckgroup.com/en/careers.html,https://www.linkedin.com/company/merck-group/,,MES;OT;Automatisation industrielle;Data;GxP;Cloud,"Site Life Science avec profils automation, digital manufacturing, data et qualité informatique.",
Euro-Information,Banque,IT bancaire;Software;Infrastructure;Data,Strasbourg,"4 rue Frédéric-Guillaume-Raiffeisen, 67000 Strasbourg",48.5933,7.7698,https://www.e-i.com,https://www.e-i.com/fr/recrutement,https://www.linkedin.com/company/euro-information/,,Java;JavaScript;SQL;Mainframe;DevOps;Infrastructure,Filiale technologique du Crédit Mutuel avec équipes IT importantes à Strasbourg.,
BPCE Solutions Informatiques,Banque,IT bancaire;Software;Cloud;Data,Schiltigheim,"4 rue de la Haye, 67300 Schiltigheim",48.6105,7.7118,https://www.bpce-si.fr,https://www.bpce-si.fr/recrutement,https://www.linkedin.com/company/bpce-solutions-informatiques/,,Java;Angular;Full stack;API;CI/CD;Banque,Entité IT du groupe BPCE avec implantation strasbourgeoise et postes développeur full stack.,
Crédit Mutuel Alliance Fédérale,Banque,IT bancaire;Data;Cybersécurité;Infrastructure,Strasbourg,"4 rue Frédéric-Guillaume-Raiffeisen, 67000 Strasbourg",48.5933,7.7698,https://www.creditmutuelalliancefederale.fr,https://recrutement.creditmutuel.fr,https://www.linkedin.com/company/credit-mutuel-alliance-federale/,,Java;SQL;Data;Mainframe;Cybersécurité;DevOps,"Grand groupe bancaire local avec besoins récurrents en développement, data, sécurité et systèmes bancaires.",
Caisse d'Épargne Grand Est Europe,Banque,IT bancaire;Production applicative;Data,Strasbourg,"1 avenue du Rhin, 67000 Strasbourg",48.5739,7.7695,https://www.caisse-epargne.fr/grand-est-europe/,https://www.caisse-epargne.fr/grand-est-europe/recrutement/,https://www.linkedin.com/company/caisse-d-epargne-grand-est-europe/,,SQL;Production applicative;Data;Banque;Support applicatif,"Banque régionale avec besoins IT, production applicative, data et fonctions support numériques.",
Electricité de Strasbourg,Energie,Infrastructure;Smart grid;Data;OT,Mundolsheim,"5 rue André-Marie Ampère, 67450 Mundolsheim",48.6456,7.7189,https://www.es.fr,https://www.es.fr/recrutement,https://www.linkedin.com/company/electricite-de-strasbourg/,,Data;OT;Infrastructure;Smart grid;ERP;Cybersécurité,"Acteur énergie local avec enjeux systèmes industriels, data, infrastructure et transformation numérique.",
Sopra Steria,ESN,Conseil;Software;Cloud;Cybersécurité,Schiltigheim,"15A avenue de l'Europe, 67300 Schiltigheim",48.6134,7.7108,https://www.soprasteria.com,https://www.soprasteria.fr/carrieres,https://www.linkedin.com/company/sopra-steria/,,Java;.NET;Angular;Cloud;DevOps;Cybersécurité;Agile,Grande ESN avec agence locale et missions IT pour grands comptes publics et privés.,
Capgemini,ESN,Conseil;Cloud;Data;Software,Schiltigheim,"17 rue de la Haye, 67300 Schiltigheim",48.6111,7.7118,https://www.capgemini.com/fr-fr/,https://www.capgemini.com/fr-fr/carrieres/,https://www.linkedin.com/company/capgemini/,,Java;.NET;Cloud;Data;DevOps;SAP;Agile,Acteur conseil et intégration majeur avec présence locale autour de Strasbourg.,
CGI,ESN,Conseil;Software;Cloud;Data,Illkirch-Graffenstaden,"6 rue Eugénie Brazier, 67400 Illkirch-Graffenstaden",48.5296,7.7402,https://www.cgi.com/france,https://www.cgi.com/france/fr-fr/carrieres,https://www.linkedin.com/company/cgi/,,C#;.NET;Java;Angular;Cloud;SQL;DevOps,ESN internationale avec agence locale et offres IT régulières sur Strasbourg.,
Groupe SII,ESN,Conseil;Software;Industrie;Cloud,Strasbourg,"10 boulevard de Dresde, 67000 Strasbourg",48.59886,7.76568,https://sii-group.com/fr-FR,https://sii-group.com/fr-FR/carrieres,https://www.linkedin.com/company/groupe-sii/,,C#;.NET;Java;Angular;DevOps;Cloud;SQL,ESN orientée ingénierie et développement avec postes C#/.NET et software à Strasbourg.,
Atos,ESN,Cloud;Infrastructure;Cybersécurité;Infogérance,Schiltigheim,"6 rue de Copenhague, 67300 Schiltigheim",48.6148,7.7095,https://atos.net/fr,https://atos.net/fr/carrieres,https://www.linkedin.com/company/atos/,,Linux;Oracle;CentOS;Réseaux;Sécurité;Cloud;DevOps,"Présence locale utile pour profils infrastructure, production, cloud, sécurité et projets grands comptes.",
Inetum,ESN,Conseil;Software;Cloud;Data,Schiltigheim,"24 avenue de l'Europe, 67300 Schiltigheim",48.6131,7.711,https://www.inetum.com/fr,https://www.inetum.com/fr/carrieres,https://www.linkedin.com/company/inetum/,,Java;.NET;Angular;Cloud;Data;DevOps;Agile,ESN avec implantation dans l'Espace Européen de l'Entreprise et missions applicatives locales.,
Open,ESN,Software;Conseil;Cloud;Data,Schiltigheim,"1 avenue de l'Europe, 67300 Schiltigheim",48.614,7.7115,https://www.open.global,https://www.open.global/fr/carrieres,https://www.linkedin.com/company/groupe-open/,,Java;.NET;Angular;Cloud;DevOps;SQL;Agile,"ESN présente localement avec besoins en développement, pilotage projet et transformation numérique.",
Apside,ESN,Conseil;Software;Industrie;Banque,Schiltigheim,"16 avenue de l'Europe, 67300 Schiltigheim",48.6137,7.7112,https://www.apside.com,https://www.apside.com/fr/carrieres/,https://www.linkedin.com/company/apside/,,C#;.NET;Java;Angular;SQL;DevOps;Agile,"ESN locale pertinente pour missions développement, banque, industrie et systèmes d'information.",
SFEIR Est,ESN,Cloud;Software;Data;Conseil,Schiltigheim,"1 avenue de l'Europe, 67300 Schiltigheim",48.614,7.7115,https://www.sfeir.com,https://www.sfeir.com/fr/recrutement/,https://www.linkedin.com/company/sfeir/,,Java;Spring Boot;Angular;Google Cloud;Cloud;DevOps;C#;.NET;Tests unitaires,"Cabinet tech orienté cloud, développement moderne et accompagnement d'équipes techniques.",
Technology & Strategy,ESN,Ingénierie;Software;Data;Industrie,Schiltigheim,"4 rue de Dublin, 67300 Schiltigheim",48.6126,7.7104,https://www.technologyandstrategy.com,https://www.technologyandstrategy.com/careers/,https://www.linkedin.com/company/technology-strategy/,,Software Engineering;Embedded;Data;Cloud;Java;.NET;DevOps,Groupe local de conseil ingénierie et digital avec siège à Schiltigheim.,
Eastelson,ESN,IT;Software;Banque;Data,Strasbourg,"10 rue du Général de Castelnau, 67000 Strasbourg",48.589,7.7512,https://eastelson.com,,https://fr.linkedin.com/company/eastelson,,C#;.NET;Java;SQL;Agile;Conseil IT,Cabinet local de conseil IT avec positionnement missions techniques et accompagnement client.,
Objectware Strasbourg,ESN,Software;Banque;Data;IA,Strasbourg,"28 avenue du Rhin, 67100 Strasbourg",48.5737,7.7716,https://www.objectware.fr,https://www.objectware.fr/carrieres,https://www.linkedin.com/company/objectware/,,C#;.NET;Java;Angular;Data;IA;SQL;Agile,"ESN avec agence strasbourgeoise et positionnement banque, industrie, santé et digital.",
Groupe ACESI,ESN,Infrastructure;Cloud;Cybersécurité;Infogérance,Entzheim,"8B rue Icare, 67960 Entzheim",48.5395,7.6334,https://www.acesi.fr,https://www.acesi.fr/recrutement/,https://www.linkedin.com/company/groupe-acesi/,,Infrastructure;Cloud;Cybersécurité;Microsoft;Réseaux;DevOps,"Acteur régional IT orienté infrastructure, cloud, cybersécurité et services managés.",
Nomios Strasbourg,ESN,Cybersécurité;Réseaux;Infrastructure,Entzheim,"3 rue des Cigognes, 67960 Entzheim",48.539,7.632,https://www.nomios.fr,https://www.nomios.fr/carrieres,https://www.linkedin.com/company/nomios/,,Cybersécurité;Réseaux;Firewall;SOC;Cloud Security;Infrastructure,Spécialiste cybersécurité et réseaux avec présence à Entzheim.,
Orange Cyberdefense France,Communication,Cybersécurité;SOC;Cloud Security;Réseaux,Schiltigheim,"1 avenue de l'Europe, 67300 Schiltigheim",48.614,7.7115,https://www.orangecyberdefense.com/fr,https://www.orangecyberdefense.com/fr/carrieres,https://www.linkedin.com/company/orange-cyberdefense/,,Cybersécurité;SOC;Cloud Security;Réseaux;IAM;SIEM,"Très pertinent pour une évolution vers cybersécurité, sécurité opérationnelle et conseil sécurité.",
NXO France,Communication,Réseaux;Cybersécurité;Cloud;Infrastructure,Entzheim,"19 rue des Cigognes, 67960 Entzheim",48.5384,7.6317,https://www.nxo.eu,https://www.nxo.eu/carrieres,https://www.linkedin.com/company/nxo-france/,,Réseaux;Cybersécurité;Télécoms;Cloud;Infrastructure;Cisco,"Agence locale orientée réseaux, sécurité, cloud et intégration infrastructure.",
Econocom,ESN,Infrastructure;Services numériques;Cloud;Support,Entzheim,"17 rue Icare, 67960 Entzheim",48.5397,7.6338,https://www.econocom.com,https://www.econocom.com/fr/carrieres,https://www.linkedin.com/company/econocom/,,Infrastructure;Support IT;Cloud;Workplace;Services managés,"Présence locale pour services numériques, support, infrastructure et environnements utilisateurs.",
HARA Consulting,Conseil,IT;Software;Data;Agile,Strasbourg,"9 place Broglie, 67000 Strasbourg",48.5848,7.7506,https://hara-consulting.com,https://hara-consulting.com/recrutement/,https://www.linkedin.com/company/hara-consulting/,,C#;.NET;Java;Angular;SQL;Agile;Conseil,"Cabinet de conseil IT local pour missions applicatives, AMOA technique et accompagnement projet.",
Versusmind,ESN,Software;Conseil;Cloud;UX,Strasbourg,"10 place Gutenberg, 67000 Strasbourg",48.5812,7.7486,https://www.versusmind.eu,https://www.versusmind.eu/recrutement/,https://www.linkedin.com/company/versusmind/,,C#;.NET;Java;Angular;React;Cloud;Agile,Société de développement et conseil locale avec culture produit et projets applicatifs.,
SSW Strasbourg,ESN,Microsoft;Cloud;Software;DevOps,Strasbourg,"19 rue du Fossé des Treize, 67000 Strasbourg",48.5874,7.7471,https://www.ssw.com.au,https://www.ssw.com.au/careers,https://www.linkedin.com/company/ssw/,,C#;.NET;Azure;SQL Server;Angular;DevOps;Architecture,"Cabinet orienté stack Microsoft, Azure, architecture logicielle et bonnes pratiques de développement.",
Divalto,SaaS,ERP;CRM;Software;Cloud,Entzheim,"11 rue Icare, 67960 Entzheim",48.5394,7.6337,https://www.divalto.com,https://www.divalto.com/carriere/,https://www.linkedin.com/company/divalto/,,C#;.NET;ERP;CRM;SQL;API;Cloud,"Editeur ERP/CRM local très pertinent pour profils .NET, applicatif métier et logiciel de gestion.",
Sopra HR Software,SaaS,SIRH;Paie;Software;Cloud,Schiltigheim,"15 avenue de l'Europe, 67300 Schiltigheim",48.6134,7.7108,https://www.soprahr.com,https://www.soprahr.com/fr/carrieres,https://www.linkedin.com/company/sopra-hr-software/,,SIRH;HR Access;Java;SQL;Paie;Cloud,Editeur SIRH avec implantation locale et besoins en développement logiciel RH et paie.,
Septeo Real Estate Solutions,SaaS,Immobilier;Software;Cloud;ERP,Strasbourg,"7 allée Cérès, 67200 Strasbourg",48.591,7.7122,https://www.septeo.com,https://careers.septeo.com/,https://www.linkedin.com/company/septeo/,,SaaS;Cloud;Immobilier;API;Support;CRM,Groupe logiciel avec solutions immobilières et présence strasbourgeoise via Modelo Office.,
Leanspace,SaaS,Spatial;Cloud;API;Software,Schiltigheim,"4 rue de la Haye, 67300 Schiltigheim",48.6105,7.7118,https://leanspace.io,https://leanspace.io/careers,https://www.linkedin.com/company/leanspace/,,Java;Python;TypeScript;REST API;Cloud;SaaS,"Editeur SaaS spatial local avec forte orientation API, cloud et opérations logicielles.",
Chargemap,SaaS,Mobilité électrique;Energie;Mobile;Data,Strasbourg,"7 allée Cérès, 67200 Strasbourg",48.591,7.7122,https://chargemap.com,https://www.welcometothejungle.com/fr/companies/chargemap/jobs,https://www.linkedin.com/company/chargemap/,,Mobile;API;Paiement;Data;Support IT;SaaS,"Plateforme locale de recharge électrique avec enjeux produit, mobile, paiement et data.",
Plus Que Pro,SaaS,CRM;IA;Marketing digital;Software,Schiltigheim,"13 rue de la Haye, 67300 Schiltigheim",48.6118,7.7116,https://www.plus-que-pro.fr,https://www.welcometothejungle.com/fr/companies/plus-que-pro/jobs,https://fr.linkedin.com/company/plus-que-pro,,PHP;JavaScript;IA;CRM;SaaS;Marketing automation,"Editeur local avec plateforme SaaS, CRM, IA et recrutement tech régulier.",
ORISUN,SaaS,IoT;Data;IA;Cloud,Strasbourg,"32 rue Himmerich, 67000 Strasbourg",48.5855,7.7292,https://orisun-iot.com,,https://www.linkedin.com/company/orisun-iot,,IoT;Data;Machine Learning;Cloud;Jumeaux numériques,"Plateforme IoT locale autour de la donnée, du monitoring et des jumeaux numériques.",
IDEMoov,SaaS,IoT;Data;IA;Mobilité,Entzheim,"1C rue Pégase, 67960 Entzheim",48.5386,7.6302,https://www.idemoov.com,,https://www.linkedin.com/company/idemoov/,,IoT;Data Science;IA;SaaS;Temps réel,"Société locale orientée IoT, data et solutions numériques temps réel.",
Easy-live,SaaS,GTB;GTC;IoT;Supervision,Geispolsheim,"6A rue de l'Industrie, 67118 Geispolsheim",48.5178,7.6484,https://www.easy-live.com,,,IoT;Supervision;GTB;GTC;Automatisation;Cloud,"Editeur de solution de supervision bâtiment avec enjeux IoT, énergie et pilotage technique.",,
Actimage,ESN,Software;IoT;Cloud;IA,Kehl,"Hafenstrasse 3, 77694 Kehl, Allemagne",48.5732,7.815,https://www.actimage.com,https://www.actimage.com/careers,https://www.linkedin.com/company/actimage/,,Software;Cloud;IoT;IA;Mobile;Data,"Entreprise franco-allemande proche Strasbourg avec projets cloud, IoT, IA et développement logiciel.",
CALDUCEE,Santé,SaaS;Données de santé;Cloud,Oberhausbergen,"9A rue d'Eckbolsheim, 67205 Oberhausbergen",48.6073,7.6914,https://www.calducee.com,,,SaaS;Données de santé;Cloud;Interopérabilité;Agenda,Editeur santé local avec solution numérique pour la gestion et l'organisation médicale.,,
Pixacare,Santé,Medtech;IA;Imagerie;SaaS,Strasbourg,"2 rue Marie Hamm, 67000 Strasbourg",48.57547,7.74836,https://www.pixacare.com,https://pixacare.welcomekit.co/,https://www.linkedin.com/company/pixacare/,,IA;Imagerie médicale;Cloud;SaaS;Mobile;Data,Medtech strasbourgeoise spécialisée dans la documentation et le suivi de plaies par image.,
Visible Patient Lab,Santé,Medtech;Imagerie médicale;3D;Software,Strasbourg,"8 rue Gustave Adolphe Hirn, 67000 Strasbourg",48.5895,7.7627,https://www.visiblepatient.com,,https://www.linkedin.com/company/visible-patient/,,Imagerie médicale;3D;Data;Cloud sécurisé;Software médical,"Medtech locale avec logiciel d'imagerie médicale, modélisation 3D et données de santé.",
Transgene,Santé,Biotech;Data;Recherche;Pharma,Illkirch-Graffenstaden,"Boulevard Gonthier d'Andernach, Parc d'Innovation, 67400 Illkirch-Graffenstaden",48.5228,7.7405,https://www.transgene.fr,https://www.transgene.fr/careers/,https://www.linkedin.com/company/transgene/,,Data;Bioinformatique;Qualité;Systèmes réglementés;Pharma,"Biotech locale avec besoins numériques liés recherche, data, qualité et systèmes réglementés.",
NovAliX,Santé,Biotech;CRO;Data;Recherche,Strasbourg,"4 rue d'Ankara, 67000 Strasbourg",48.5794,7.7687,https://www.novalix.com,https://www.novalix.com/careers/,https://www.linkedin.com/company/novalix/,,Data;Bioinformatique;Automatisation;Recherche;Infrastructure scientifique,"CRO strasbourgeoise avec enjeux data, calcul scientifique et systèmes numériques de laboratoire.",
Sartorius Polyplus,Santé,Biotech;Pharma;Industrie;Data,Illkirch-Graffenstaden,"75 rue Marguerite Perey, 67400 Illkirch-Graffenstaden",48.5224,7.7427,https://www.sartorius.com,https://www.sartorius.com/en/company/careers,https://fr.linkedin.com/company/polyplus-sartorius,,Data;Qualité;GxP;Automatisation;Systèmes industriels,"Site biotech local avec besoins IT industriels, qualité, data et automatisation.",
Octapharma,Santé,Pharmaceutique;Industrie;Data;OT,Lingolsheim,"72 rue du Maréchal Foch, 67380 Lingolsheim",48.5576,7.6884,https://www.octapharma.com,https://www.octapharma.com/careers/,https://www.linkedin.com/company/octapharma/,,MES;OT;Qualité;Data;Infrastructure;GxP,"Site pharmaceutique local avec besoins numériques industriels, production et qualité.",
IRCAD France,Santé,Recherche médicale;Formation;Imagerie;Robotique,Strasbourg,"1 place de l'Hôpital, 67000 Strasbourg",48.5739,7.7475,https://www.ircad.fr,,https://www.linkedin.com/company/ircad/,,Imagerie médicale;Robotique;Simulation;E-learning;Data,"Institut médical reconnu avec forte composante numérique, formation, simulation et innovation chirurgicale.",
Eu-LISA,Service public,Systèmes européens;Cybersécurité;Infrastructure;Data,Strasbourg,"18 rue de la Faisanderie, 67100 Strasbourg",48.5449,7.7689,https://www.eulisa.europa.eu,https://www.eulisa.europa.eu/About-Us/Job-Opportunities,https://www.linkedin.com/company/eu-lisa/,,Infrastructure;Cybersécurité;Data;Cloud;Systèmes critiques;ITSM,Agence européenne gérant de grands systèmes IT critiques avec site technique à Strasbourg.,
ARTE GEIE,Communication,Média;Streaming;Digital;Data,Strasbourg,"4 quai du Chanoine Winterer, 67000 Strasbourg",48.5937,7.7662,https://www.arte.tv,https://www.arte.tv/sites/corporate/recrutement/,https://www.linkedin.com/company/arte/,,Streaming;Web;Data;CMS;Infrastructure;DevOps,"Média européen local avec besoins numériques, plateforme vidéo, data et outils éditoriaux.",
Conseil de l'Europe,Service public,Institutions européennes;Infrastructure;Data;Cybersécurité,Strasbourg,"Avenue de l'Europe, 67075 Strasbourg Cedex",48.5956,7.7717,https://www.coe.int,https://www.coe.int/en/web/jobs,https://www.linkedin.com/company/council-of-europe/,,Infrastructure;Cybersécurité;Data;Applications métier;ITSM,"Institution européenne locale avec fonctions IT, applications internes, infrastructure et sécurité.",
Lohr Industrie,Industrie,Transport;Software embarqué;Automatisation,Duppigheim,"ZA de la Bruche, avenue de la Concorde, 67120 Duppigheim",48.5268,7.5895,https://www.lohr.fr,https://www.lohr.fr/carrieres/,https://www.linkedin.com/company/lohr-industrie/,,Embedded;Automatisation;C++;Systèmes industriels;IoT,"Industriel transport local avec enjeux software embarqué, systèmes mécatroniques et automatisation.",
Bugatti Automobiles,Industrie,Automobile;Software embarqué;Data,Dorlisheim,"1 rue Saint-Jean, 67120 Dorlisheim",48.5237,7.4911,https://www.bugatti.com,https://www.bugatti.com/career/,https://www.linkedin.com/company/bugatti-automobiles-s-a-s/,,Embedded;Automobile;Data;PLM;ERP;Systèmes embarqués,"Constructeur automobile haut de gamme avec besoins numériques, data, ERP et systèmes embarqués.",
Safran Landing Systems,Industrie,Aéronautique;Software industriel;Data;ERP,Molsheim,"1 rue Antoine de Saint-Exupéry, 67120 Molsheim",48.537,7.514,https://www.safran-group.com,https://www.safran-group.com/jobs,https://www.linkedin.com/company/safran/,,ERP;PLM;Data;Automatisation;Systèmes industriels;Qualité,"Site aéronautique local avec enjeux SI industriel, data, qualité et automatisation.",
Würth France,Retail,Distribution B2B;E-commerce;Data;ERP,Erstein,"Rue Georges Besse, 67150 Erstein",48.427,7.6534,https://www.wurth.fr,https://www.wurth.fr/fr/wurth_fr/recrutement/recrutement.php,https://www.linkedin.com/company/wurth-france/,,ERP;Data;E-commerce;CRM;Logistique;BI,"Grand acteur B2B local avec enjeux e-commerce, data, ERP, logistique et CRM.",
KUHN SAS,Industrie,Agroéquipement;Software embarqué;IoT;Data,Saverne,"4 impasse des Fabriques, 67700 Saverne",48.742,7.3652,https://www.kuhn.com,https://www.kuhn.com/fr/carrieres,https://www.linkedin.com/company/kuhn-group/,,Embedded;IoT;Data;C++;Automatisation;ERP,"Industriel majeur de l'agroéquipement avec enjeux embarqué, IoT, data et systèmes industriels.",
SEW-USOCOME,Industrie,Automatisation;Mécatronique;IoT;OT,Haguenau,"48 route de Soufflenheim, 67500 Haguenau",48.8214,7.8102,https://www.usocome.com,https://www.usocome.com/emploi-carriere,https://www.linkedin.com/company/sew-usocome/,,Automatisation;OT;IoT;ERP;Systèmes industriels;Data,"Industriel automatisation et entraînement avec besoins systèmes industriels, data et digital manufacturing.",
Siemens Production Automation,Industrie,Automatisation;Industrie 4.0;OT;Software,Haguenau,"1 chemin de la Sandlach, 67500 Haguenau",48.8079,7.7811,https://www.siemens.com,https://jobs.siemens.com/careers,https://www.linkedin.com/company/siemens/,,Automatisation;PLC;OT;MES;Cloud industriel;Cybersécurité,"Site Siemens orienté production automation avec enjeux OT, industrie 4.0 et digital factory.",
Schaeffler France,Industrie,Automobile;Mécatronique;Data;ERP,Haguenau,"93 route de Bitche, 67500 Haguenau",48.8236,7.7883,https://www.schaeffler.com,https://www.schaeffler.com/en/careers/,https://www.linkedin.com/company/schaeffler/,,Data;ERP;Automatisation;Systèmes industriels;PLM;Qualité,"Grand industriel automobile avec besoins SI industriel, data, automatisation et qualité.",
BDR Thermea France,Industrie,Energie;IoT;Thermique;ERP,Mertzwiller,"57 rue de la Gare, 67580 Mertzwiller",48.866,7.684,https://www.bdrthermeagroup.com,https://www.bdrthermeagroup.com/en/careers,https://www.linkedin.com/company/bdr-thermea-group/,,IoT;ERP;Data;Automatisation;Systèmes industriels;Cloud,"Fabricant chauffage et énergie avec enjeux produits connectés, ERP, data et digital manufacturing.",
De Dietrich Process Systems,Industrie,Process industriel;Automatisation;Data;ERP,Schiltigheim,"5 rue de Lisbonne, 67300 Schiltigheim",48.612,7.7102,https://www.dedietrich.com,https://www.dedietrich.com/en/career,https://www.linkedin.com/company/de-dietrich-process-systems/,,Automatisation;ERP;Data;Systèmes industriels;PLM;Qualité,"Entreprise industrielle locale avec besoins SI industriel, automatisation et support applicatif métier.",
Hubert Burda Media,Communication,Média;Digital;Data;Software,Offenburg,"Hubert-Burda-Platz 1, 77652 Offenburg, Allemagne",48.4729,7.9438,https://www.burda.com,https://www.burda.com/en/career/,https://www.linkedin.com/company/hubert-burda-media/,,Web;Data;CRM;Cloud;BI;Digital products,"Groupe média allemand proche avec activités numériques, data, plateformes web et produits digitaux.",
Burda Digital Systems,SaaS,IT interne;Data;Infrastructure;Software,Offenburg,"Hubert-Burda-Platz 2, 77652 Offenburg, Allemagne",48.4729,7.9438,https://www.burdasolutions.com,https://www.burdasolutions.com/karriere/stellenangebote/,https://www.linkedin.com/company/burdasolutions/,,Python;BI;CRM;ERP;Mobile;Network Automation,"Entité IT du groupe Burda avec besoins software, BI, infrastructure et applications internes.",
Avenit AG,SaaS,E-commerce;IA;Software;Cloud,Offenburg,"Marlener Strasse 2, 77656 Offenburg, Allemagne",48.4686,7.952,https://www.avenit.de,https://www.avenit.de/de/karriere,https://www.linkedin.com/company/avenit-ag/,,TypeScript;Node.js;NestJS;SaaS;IA;Full stack,"Editeur et agence digitale allemande proche avec postes software, IA et développement web moderne.",
Happyhotel,SaaS,Hôtellerie;Data;Pricing;Software,Offenburg,"Im Unteren Angel 1, 77652 Offenburg, Allemagne",48.47629,7.93654,https://www.happyhotel.io,https://www.happyhotel.io/karriere,https://www.linkedin.com/company/happyhotel/,,Go;TypeScript;Angular;AWS;API;Data,"SaaS hôtelier à Offenburg avec profils software engineering, data et cloud.",
MEIKO Maschinenbau,Industrie,Machines industrielles;IoT;Embedded;Automatisation,Offenburg,"Englerstrasse 3, 77652 Offenburg, Allemagne",48.4825,7.9472,https://www.meiko-global.com,https://www.meiko-global.com/en/career/,https://www.linkedin.com/company/meiko/,,Embedded Software;C++;C#;IoT;Automatisation;ERP,"Industriel allemand proche avec enjeux logiciel embarqué, automatisation, IoT et digitalisation industrielle.",
LEITWERK AG,ESN,Infrastructure;Cloud;Services managés;Cybersécurité,Appenweier,"Im Ettenbach 13A, 77767 Appenweier, Allemagne",48.5362,7.9791,https://www.leitwerk.de,https://www.leitwerk.de/karriere/,https://www.linkedin.com/company/leitwerk-ag/,,Infrastructure;Cloud;Réseaux;Cybersécurité;Services managés;Microsoft,"Prestataire IT régional proche Offenburg orienté infrastructure, cloud, sécurité et services managés.",
MARKANT Gruppe,Retail,Distribution;Data;EDI;Software,Offenburg,"Hanns-Martin-Schleyer-Strasse 2, 77656 Offenburg, Allemagne",48.4692,7.9525,https://www.markant.com,https://jobs.markant.com,https://www.linkedin.com/company/markant-gruppe/,,BI;EDI;Data;Software Engineering;Paiement;ERP,"Groupe de services retail avec importants besoins IT, data, EDI, paiement et systèmes métier.",
Herrenknecht AG,Industrie,Machines industrielles;Automatisation;Data;ERP,Schwanau,"Schlehenweg 2, 77963 Schwanau, Allemagne",48.3579,7.7639,https://www.herrenknecht.com,https://www.herrenknecht.com/en/careers/,https://www.linkedin.com/company/herrenknecht-ag/,,Automatisation;ERP;Data;Systèmes industriels;IoT;PLM,"Grand industriel proche frontière avec besoins IT industriels, ERP, automatisation et data.",
AFI ESCA,Assurance,Assurance emprunteur;Epargne;Prévoyance;Assurtech;Fintech,Strasbourg,"2 Quai Kléber, 67000 Strasbourg",48.58574,7.74161,https://www.afi-esca.com,https://afi-esca-recrutement.com/,https://www.linkedin.com/company/afi-esca/,,Assurance;Assurtech;Fintech;Outils digitaux;Signature électronique;CRM;Data,"Assureur strasbourgeois avec enjeux digitaux, outils courtiers, parcours de souscription et systèmes assurantiels.",
TokTokDoc,Santé,Medtech;Télémédecine;SaaS;Données de santé,Strasbourg,"2 rue Marie Hamm, NextMed Bâtiment Explora, 67000 Strasbourg",48.57547,7.74836,https://toktokdoc.com,https://recrute.francetravail.fr/page-employeur/nemo-health-619,https://www.linkedin.com/company/toktokdoc/,,Azure;HDS;RGPD;Android;API;Télémédecine;Objets connectés;Données de santé,Medtech strasbourgeoise spécialisée dans la télémédecine accompagnée pour le médico-social et les établissements de santé.,
HypnoVR,Santé,Medtech;Réalité virtuelle;Dispositif médical;Software,Strasbourg,"2 rue Marie Hamm, 67000 Strasbourg",48.57543,7.74872,https://hypnovr.io,,https://www.linkedin.com/company/hypno-vr/,,VR;Unity;Medical device;ISO 13485;Software;Mobile;Cloud,"Medtech strasbourgeoise développant des thérapies digitales en réalité virtuelle pour douleur, anxiété et hypnose médicale.",
Synovo Group,Santé,SaaS;Transport sanitaire;HDS;Infrastructure;Cloud,Strasbourg,"8 rue Schertz, 67100 Strasbourg",48.55814,7.74254,https://www.synovo-group.com,https://www.synovo-group.com/nous-rejoindre/,https://www.linkedin.com/company/synovo-software-innovation/,,C#;.NET;WPF;WCF;SQL Server;Azure;HDS;Cloud;Infrastructure,"Editeur logiciel santé/transport sanitaire avec solutions Saphir et Rubis, infrastructure, hébergement et certification HDS.",
Audensiel Grand Est,ESN,Conseil;Digital;Data;IA;Cybersécurité;Cloud,Schiltigheim,"23 rue de la Haye, Bâtiment Le Twins, 67300 Schiltigheim",48.61195,7.70553,https://www.audensiel.com,https://www.audensiel.com/jobs,https://www.linkedin.com/company/audensiel-grand-est/,,Java;.NET;Angular;Data;IA;Cloud;DevOps;Cybersécurité;IoT,"Cabinet de conseil et transformation digitale présent dans le Grand Est avec offres IT, data, cloud, cybersécurité et développement.",
Davidson Est,ESN,ESN;Digital;Data;DevOps;Banque;Industrie,Strasbourg,"3 rue Alfred Kastler, 67100 Strasbourg",48.57233,7.7704,https://www.davidson.fr,https://www.davidson.fr/nos-filiales/davidson-est,https://www.linkedin.com/company/davidson-consulting/,,C#;.NET;Java;Angular;React;JavaScript;PHP;Symfony;Drupal;Python;Data;DevOps;Cloud;Cybersécurité,"Cabinet de conseil technologique avec agence locale, missions développement, data, DevOps, banque, industrie et télécoms.",
CFCAL Banque,Banque,Crédit;Epargne;IT bancaire;Data;Legacy,Strasbourg,"1 rue du Dôme, 67000 Strasbourg",48.58467,7.7504,https://public.cfcal-banque.fr,https://public.cfcal-banque.fr/rejoignez-nous/,https://www.linkedin.com/company/cfcal-banque/,,VB.NET;C#;.NET Core;SQL Server;Azure;JavaScript;JQuery;Postman,"Banque spécialisée Arkéa orientée regroupement de crédits, épargne digitale et SI bancaire historique à Strasbourg.",
Atyos,SaaS,Cloud;AWS;Data;IA;MLOps,Ittenheim,"18A route de Paris, 67117 Ittenheim",48.6042,7.5939,https://www.atyos.io,https://atyos.welcomekit.co/,https://www.linkedin.com/company/atyos/,,AWS;Cloud;Data Engineering;MLOps;Terraform;Databricks;Airflow;dbt;Python,"Pur player AWS local avec recrutements cloud, data engineering, MCO cloud et DevOps.",
Euro Protection Surveillance,SaaS,Télésurveillance;Sécurité;Mobile;Backend;Applications critiques,Strasbourg,"30 rue du Doubs, 67100 Strasbourg",48.55792,7.74455,https://www.eps.fr,https://www.eps.fr/fr/nos_offres.html,https://www.linkedin.com/company/euro-protection-surveillance/,,Java;Java 21;Spring;Maven;Microservices;Android;Kotlin;API;Sécurité,Filiale sécurité/télésurveillance avec offres développeur Java et Android à Strasbourg.,
Proxiad Est,ESN,Conseil;Software;AMOA;Banque;Industrie,Schiltigheim,"3 avenue de l'Europe, 67300 Schiltigheim",48.614,7.7115,https://www.proxiad.com,https://www.proxiad.com/emplois/,https://www.linkedin.com/company/proxiad/,,C#;.NET;Java;Angular;SQL;AMOA;Agile;Data,"ESN locale active sur développement applicatif, AMOA et missions grands comptes à Strasbourg.",
Reflet Digital,SaaS,Agence digitale;IA;Automation;Web;E-commerce,Strasbourg,"12 avenue de la Paix, 67000 Strasbourg",48.58892,7.75774,https://www.reflet-digital.com,https://recrutement.reflet-digital.com/,https://www.linkedin.com/company/reflet-digital/,,PHP;Symfony;Laravel;WordPress;Python;API;Make;Zapier;Airtable;IA générative,"Agence digitale strasbourgeoise recrutant sur développement web, automatisation et IA.",
UTiGROUP EST,ESN,Conseil;Software;Banque;Data;Mobile,Schiltigheim,"19 rue de la Haye, 67300 Schiltigheim",48.6117,7.7101,https://www.uti-group.fr,https://www.uti-group.fr,https://www.linkedin.com/company/uti-group/,,C#;.NET;Java;iOS;Android;BI;SQL;Mainframe;Cloud;Cybersécurité,"ESN avec implantations et offres locales sur C#/.NET, Java, mobile et BI.",
STORK Strasbourg,ESN,ESN;Software;Cybersécurité;BI;AMOA,Illkirch-Graffenstaden,"35 rue Gruninger, 67400 Illkirch-Graffenstaden",48.5222,7.7278,https://stork-groupe.fr,https://stork-groupe.fr,https://www.linkedin.com/company/stork-groupe/,,Java;C#;.NET;C++;BI;Docker;Git;Cybersécurité;AMOA,"Cabinet local avec offres développeur Java, C#/.NET, BI et cybersécurité à Strasbourg.",
Astek France,ESN,Conseil;Data;Mobile;Industrie;Software,Strasbourg,"48 rue du Vieux Marché aux Vins, 67000 Strasbourg",48.5849,7.7426,https://www.astekgroup.fr,https://astekjob.fr/offres-demploi/,https://www.linkedin.com/company/astek/,,Data;ETL;SQL;Semarchy;iOS;Android;Java;Cloud;BI,"Groupe de conseil avec établissement strasbourgeois et offres locales data, mobile et software.",
Scalian Digital Systems,ESN,Digital;Data;IA;Cloud;Software,Strasbourg,"2 rue Henri Bergson, 67200 Strasbourg",48.5808,7.7131,https://www.scalian.com,https://www.scalian.com/en/careers/,https://www.linkedin.com/company/scalian/,,Data;IA;Cloud;Software Engineering;DevOps;Analytics;BI,"Acteur conseil IT et digital présent à Strasbourg avec orientation data, IA et transformation numérique.",
Fortil Est,ESN,Ingénierie;IT;DevOps;Data;Industrie,Strasbourg,"26 avenue du Rhin, 67100 Strasbourg",48.5726,7.771,https://fortil.group,https://jobs.fortil.group/jobs,https://www.linkedin.com/company/fortil/,,DevOps;Cloud;Data;Java;Angular;Validation logicielle;Cybersécurité;Automatisation,"Cabinet d'ingénierie et IT avec offres locales chef de projet IT, DevOps et automatisation.",
IT Link France,ESN,Systèmes connectés;Software;Cybersécurité;Industrie,Strasbourg,"75 avenue des Vosges, 67000 Strasbourg",48.59083,7.74696,https://www.itlink.fr,https://carriere.itlinkgroupe.com/offres,https://www.linkedin.com/company/it-link-1/,,Java 17;Java 21;Spring Boot;Kafka;JavaFX;ElasticSearch;Oracle;Jenkins;Maven,Société de conseil en systèmes connectés avec offres Java et sécurité réseau à Strasbourg.,
Bechtle Direct France,Retail,IT B2B;Infrastructure;Cloud;Licensing;Services managés,Illkirch-Graffenstaden,"Rue Geiler de Kaysersberg, Parc d'Innovation, 67400 Illkirch-Graffenstaden",48.5298,7.7392,https://www.bechtle.com/fr,https://www.bechtle.com/fr/carriere,https://www.linkedin.com/company/bechtle/,,Infrastructure;Cloud;Microsoft;Licensing;Workplace;Réseaux;Support IT,"Acteur IT B2B implanté au Parc d'Innovation, pertinent pour postes support, infrastructure, cloud et commerce IT.",
OCI Informatique & Digital,ESN,Infrastructure;Cloud;ERP;BI;Services managés,Mundolsheim,"2 rue André-Marie Ampère, 67450 Mundolsheim",48.6456,7.7189,https://www.oci.fr,https://www.oci.fr/recrutement/,https://www.linkedin.com/company/oci_3/,,Support IT;Infrastructure;Cloud;Microsoft;ERP;BI;Réseaux;Services managés,"Prestataire informatique régional recrutant sur support, infrastructure, digital, ERP et services managés.",
DEEP / Digora,ESN,Cloud;Data;IA;Cybersécurité;Infrastructure,Strasbourg,"98 rue de Hochfelden, 67200 Strasbourg",48.598,7.7257,https://www.deep.eu/fr/accueil,https://www.deep.eu/fr/accueil,https://www.linkedin.com/company/deep-eu/,,Cloud;Data;IA;Cybersécurité;Managed Services;Infrastructure;Bases de données,"Ancien Digora devenu DEEP, acteur cloud, data, cybersécurité et infrastructures IT à Strasbourg.",
Bürkert France,Industrie,Automatisation;IoT;Capteurs;Industrie 4.0;OT,Triembach-au-Val,"20 rue du Giessen, 67220 Triembach-au-Val",48.339,7.3314,https://www.burkert.fr,https://www.burkert.fr/fr/entreprise-et-carriere,https://www.linkedin.com/company/burkertfrance/,,Automatisation;OT;IoT;Capteurs;MES;ERP;Data industrielle;Supervision,"Industriel automatisation fluidique avec enjeux capteurs, supervision, OT et digital manufacturing.",
Steelcase SAS,Industrie,Mobilier;IoT;Workplace;Data;Digital workplace,Schiltigheim,"1 allée d'Oslo, 67300 Schiltigheim",48.6126,7.7076,https://www.steelcase.com,https://www.steelcase.com/careers/,https://www.linkedin.com/company/steelcase/,,Digital workplace;Data;IoT;ERP;PLM;Cloud;Infrastructure;Analytics,"Groupe industriel présent à Schiltigheim avec enjeux data, outils digitaux, workplace et systèmes industriels.",
Mars Wrigley Confectionery France,Industrie,Agroalimentaire;Digital;E-commerce;Low-code;Data,Haguenau,"3 chemin de la Sandlach, 67500 Haguenau",48.8077,7.7826,https://www.mars.com,https://careers.mars.com/fr/fr,https://www.linkedin.com/company/mars/,,Mendix;Low-code;E-commerce;Data;BI;ERP;Supply Chain;Digital marketing,"Site Mars de Haguenau avec offres digitales, e-commerce et développement low-code observées.",
SCHILLER France,Santé,Dispositifs médicaux;Support applicatif;Infrastructure;Medtech,Haguenau,"7 rue Maryse Bastié, 67500 Haguenau",48.7928,7.8207,https://www.schiller.ch/fr-fr,https://www.schiller.ch/fr-fr/contact,https://www.linkedin.com/company/schiller-ag/,,Support informatique;Support applicatif;Dispositifs médicaux;Réseaux;Windows;Maintenance;CRM,Acteur medtech avec service client à Haguenau et offres support informatique/IT autour des dispositifs médicaux.,
Université de Strasbourg,Service public,Enseignement supérieur;Recherche;SI;Data;IA,Strasbourg,"4 rue Blaise Pascal, 67000 Strasbourg",48.57937,7.76556,https://www.unistra.fr,https://www.unistra.fr/travailler-a-luniversite,https://www.linkedin.com/school/universit-de-strasbourg/,,Support IT;Développement;Data;IA;SIG;Infrastructure;Sécurité;Applications métier,"Grand établissement public avec DSI, laboratoires et recrutements IT/recherche numérique récurrents.",
INSA Strasbourg,Service public,Enseignement supérieur;IA;Logiciel;Support IT;Recherche,Strasbourg,"24 boulevard de la Victoire, 67000 Strasbourg",48.5803,7.7628,https://www.insa-strasbourg.fr,https://www.insa-strasbourg.fr/fr/c/travailler-a-linsa-strasbourg/,https://www.linkedin.com/school/institut-national-des-sciences-appliqu%C3%A9es-de-strasbourg/,,Support IT;Ingénierie logicielle;IA;Data;Infrastructure;Python;Recherche,"École d'ingénieurs avec recrutements d'ingénieurs logiciels, support informatique et projets IA/recherche.",
Hôpitaux Universitaires de Strasbourg,Santé,Santé publique;SI hospitalier;Données de santé;Infrastructure,Strasbourg,"1 place de l'Hôpital, 67000 Strasbourg",48.5739,7.7475,https://www.chru-strasbourg.fr,https://chru-strasbourg.nous-recrutons.fr/nos-offres-demploi/,https://www.linkedin.com/company/h%C3%B4pitaux-universitaires-de-strasbourg/,,SI hospitalier;Données de santé;Interopérabilité;Infrastructure;Support IT;Cybersécurité;Applications métier,"Grand CHU avec besoins SI hospitalier, infrastructure, données de santé et support applicatif.",
Région Grand Est,Service public,Collectivité;SI;Data;Support IT;Transformation numérique,Strasbourg,"1 place Adrien Zeller, 67000 Strasbourg",48.5952,7.7658,https://www.grandest.fr,https://www.grandest.fr/rejoindre-la-region-grand-est-et-voir-plus-grand/,https://www.linkedin.com/company/regiongrandest/,,Support IT;Infrastructure;Applications métier;Data;SIG;Cybersécurité;Microsoft,"Collectivité régionale avec besoins informatiques liés aux lycées, applications métier, data et transformation numérique.",
Ville et Eurométropole de Strasbourg,Service public,Collectivité;Smart city;SI;Data;SIG,Strasbourg,"1 parc de l'Étoile, 67100 Strasbourg",48.5746,7.7521,https://www.strasbourg.eu,https://www.strasbourg.eu/travailler-eurometropole,https://fr.linkedin.com/company/strasbourg-eurometropole,,SI métier;SIG;Data;Applications publiques;Infrastructure;Cybersécurité;Support IT,"Collectivité majeure avec DSI, applications métier, data territoriale, SIG et services numériques citoyens.",
Collectivité Européenne d'Alsace,Service public,Collectivité;SI;Infrastructure;Data;Support IT,Strasbourg,"1 place du Quartier Blanc, 67000 Strasbourg",48.5822,7.7382,https://www.alsace.eu,https://www.alsace.eu/la-collectivite/nous-rejoindre/offres-d-emploi-et-stages/,https://fr.linkedin.com/company/collectivit-europ-enne-d-alsace,,Système d'information;Support IT;Infrastructure;Applications métier;Data;SIG;Sécurité,"Collectivité avec offres SI, technicien système d'information et besoins numériques territoriaux.",
Port Autonome de Strasbourg,Transport,Logistique;Infrastructure;Data;SI;IoT,Strasbourg,"1 rue du Port du Rhin, 67000 Strasbourg",48.5718,7.7946,https://www.strasbourg.port.fr,https://www.strasbourg.port.fr/groupe-pas/nous-rejoindre/,https://fr.linkedin.com/company/port-autonome-de-strasbourg-pas,,SI métier;Infrastructure;IoT;Data;Cybersécurité;ERP;Logistique;Réseaux,"Infrastructure portuaire locale avec SI logistique, données opérationnelles, réseaux et systèmes critiques.",
CNRS Délégation Alsace,Service public,Recherche;Data;IA;Calcul scientifique;Infrastructure,Strasbourg,"23 rue du Loess, 67000 Strasbourg",48.6048,7.7122,https://www.alsace.cnrs.fr,https://www.alsace.cnrs.fr/fr/concours-offres-emploi,https://www.linkedin.com/company/cnrs/,,Python;Data Science;IA;Calcul scientifique;Linux;HPC;Infrastructure;Recherche,"Délégation régionale et laboratoires CNRS avec postes ingénieurs et techniciens IT, data et calcul scientifique.",
R-GDS,Energie,Distribution gaz;SI;Cybersécurité;Data;Smart grid,Strasbourg,"14 place des Halles, 67000 Strasbourg",48.5875,7.7429,https://r-gds.fr,https://r-gds.fr/emploi/,https://www.linkedin.com/company/r-gds/,,Système d'information;Cybersécurité;Data;Supervision;Infrastructure;ERP;SIG;Réseaux,"Gestionnaire local de réseau gaz avec DSI, sécurité du SI, data, supervision et systèmes métier énergie.",
Qwenty,SaaS,Agence web;E-commerce;Applications métier;UX,Strasbourg,"10 place Gutenberg, 67000 Strasbourg",48.5812,7.7486,https://qwenty.fr,https://qwenty.fr/recrutement/,https://www.linkedin.com/company/qwenty/,,PHP;Laravel;WordPress;JavaScript;E-commerce;API;MySQL;UX,"Agence web strasbourgeoise recrutant des développeurs Laravel, WordPress et applications métier.",
Actency,SaaS,Agence web;Drupal;Digital;UX;E-commerce,Strasbourg,"32 rue du Bassin d'Austerlitz, 67100 Strasbourg",48.5726,7.7649,https://www.actency.fr,https://www.actency.fr/decouvrez-nos-offres-demploi-en-france-et-linternational,https://www.linkedin.com/company/actency/,,Drupal;PHP;Symfony;JavaScript;UX;API;CMS;E-commerce,Agence digitale spécialisée Drupal avec bureau strasbourgeois et recrutements web/digital.,
CroisiEurope,Transport,Tourisme;SI métier;Web;E-commerce;CRM,Strasbourg,"12 rue de la Division Leclerc, 67000 Strasbourg",48.5791,7.7498,https://www.croisieurope.com,https://www.croisieurope.com/information/offres-emploi,https://www.linkedin.com/company/croisieurope/,,Web;E-commerce;CRM;SI métier;Support IT;Data;Réservation;ERP,"Siège local avec systèmes de réservation, CRM, web, e-commerce et besoins numériques support/tourisme.",
Compagnie des Transports Strasbourgeois,Transport,Mobilité;Billettique;Vidéoprotection;SI;Data,Strasbourg,"14 rue de la Gare aux Marchandises, 67200 Strasbourg",48.5897,7.7336,https://www.cts-strasbourg.eu,https://recrutement.cts-strasbourg.eu/,https://www.linkedin.com/company/cts-strasbourg/,,Billettique;Vidéoprotection;SI métier;Data;Réseaux;Support IT;Infrastructure;SIG,"Opérateur transport avec SI de mobilité, billettique, vidéoprotection, data et infrastructures critiques.",
SDEA Alsace-Moselle,Service public,Eau;Assainissement;SI;Data;SIG;Infrastructure,Schiltigheim,"1 rue de Rome, 67300 Schiltigheim",48.6142,7.7086,https://www.sdea.fr,https://www.sdea.fr/index.php/fr/le-sdea/rejoindre-le-sdea/le-recrutement,https://www.linkedin.com/company/sdea-alsace-moselle/,,SI métier;SIG;Data;Infrastructure;Supervision;Support IT;ERP;Microsoft,"Syndicat eau/assainissement avec SI métier, SIG, supervision, data et recrutements territoriaux.",
Flender Graffenstaden,Industrie,Mécanique;Automatisation;OT;ERP;Data industrielle,Illkirch-Graffenstaden,"1 rue du Vieux Moulin, 67400 Illkirch-Graffenstaden",48.5186,7.7145,https://www.flender.com/fr,https://www.flender.com/fr/career,https://www.linkedin.com/company/flender/,,Automatisation;CNC;OT;MES;ERP;PLM;Data industrielle;Maintenance,"Industriel local avec enjeux automatisation, programmation industrielle, ERP et amélioration continue numérique.",
Abylsen,Conseil,Ingénierie;IT;Industrie;Conseil,Strasbourg,,48.5734,7.7521,https://www.abylsen.com,https://jobs.abylsen.com/apply,https://www.linkedin.com/company/abylsen/,,C#;.NET;SQL;Conseil;Ingénierie,Offre locale observée pour développement backend et profils ingénierie IT.,
AGILIA Technology,ESN,Conseil IT;Développement logiciel;Expertise technique,Entzheim,"5 rue Icare, 67960 Entzheim",48.5447,7.6525,https://agilia-technology.com/en/home-english/,,https://fr.linkedin.com/company/agilia-technology,,Ruby;Ruby on Rails;COBOL;DB2;JCL;C#;.NET,ESN basée à Entzheim avec offres Ruby mainframe et .NET autour de Strasbourg.,
Alteca,ESN,Transformation applicative;Data;Conseil IT,Strasbourg,,48.5734,7.7521,https://www.alteca.fr/,https://www.alteca.fr/offres/,https://www.linkedin.com/company/alteca/,,Java;SQL;Semarchy;Data,ESN de proximité avec offre locale Java et data à Strasbourg.,
AquisIT,Conseil,Recrutement IT;Recrutement technique;Placement,Strasbourg,,48.5734,7.7521,https://www.aquisit.fr/,https://www.hellowork.com/fr-fr/entreprises/aquisit-132257.html,https://fr.linkedin.com/company/aquisit,,PHP;Laravel;React;Recrutement IT,Cabinet de recrutement IT avec offres développeur observées à Strasbourg.,
Audensiel Technologies,ESN,Transformation digitale;Conseil métier;Technologies,Strasbourg,,48.5734,7.7521,https://www.audensiel.com,,https://www.linkedin.com/company/audensiel-technologies/,,C#;SQL;Java;Swift;API REST;Git;Agile,ESN et conseil technologique avec plusieurs offres software locales.,
AZ Conception,SaaS,Web;Mobilité;Gestion de flotte;Applications métier,Strasbourg,,48.5734,7.7521,https://www.azconception.com,https://www.azconception.com/offre-emploi-developpeur-php/,,,PHP;Laravel;AngularJS;Ionic;Android,Offre officielle pour développeurs web et mobile à Strasbourg.,
BAV Institut,Santé,Laboratoire;Qualité;Agroalimentaire;Logiciel,Offenburg,,48.4735,7.9445,https://www.bav-institut.de,https://jobs.bav-institut.de/,https://de.linkedin.com/company/bav-institut,,C#;.NET;Unit Testing,Institut laboratoire à Offenburg avec offre Full Stack C#/.NET.,
Bloomind,ESN,Conseil IT;Développement logiciel;Recrutement,Strasbourg,,48.5734,7.7521,,https://fr.linkedin.com/company/bloomind-io/jobs,https://fr.linkedin.com/company/bloomind-io,,C#;.NET;Angular;Azure;Java,ESN basée à Strasbourg avec offres développeur et profils conseil IT.,
Caveo Consulting,ESN,Conseil IT;Développement logiciel;Applications métier,Strasbourg,,48.5734,7.7521,http://caveo-consulting.fr,,https://fr.linkedin.com/company/caveo-consulting,,C#;.NET;Java,ESN avec présence strasbourgeoise observée dans les offres développeur.,
CELAD,ESN,Conseil IT;Développement logiciel;Mobile;Data,Strasbourg,,48.5734,7.7521,https://www.celad.com,https://www.celad.com/carriere/offres-demploi/,https://www.linkedin.com/company/celad,,Ruby;Ruby on Rails;Android;Java,ESN avec opportunités Strasbourg et besoins backend/mobile.,
Cezam,Conseil,Recrutement;RH;IT;Développement web,Oberhausbergen,,48.6069,7.6857,https://www.cezam-recrutement.fr/,,https://www.linkedin.com/company/cezamrecrutement,,PHP;Symfony;Vue.js,Cabinet de recrutement avec offre architecte Symfony/Vue à Oberhausbergen.,
CITECH,ESN,Conseil IT;Développement bancaire;DevOps,Strasbourg,,48.5734,7.7521,https://www.citech.fr/,https://jobs.smartrecruiters.com/CITECH,https://www.linkedin.com/company/citech-pro,,C#;.NET;SQL;Git;CI/CD;DevOps;Jira,ESN avec plusieurs offres C#/.NET et DevOps à Strasbourg.,
Crit Experts et Cadres,Conseil,Recrutement;RH;IT;Cadres,Strasbourg,,48.5734,7.7521,https://www.crit-job.com,https://www.crit-job.com/agences/voir/425-crit-strasbourg-experts-cadres/,https://fr.linkedin.com/company/crit-experts-cadres,,C#;.NET;React,Cabinet de recrutement avec offre développeur fullstack .NET/React à Strasbourg.,
DALIM Software,SaaS,Édition logiciel;Automatisation;Marketing content;Print,Kehl,,48.5729,7.8158,https://www.dalim.com,https://www.dalim.com/dalim-careers,https://www.linkedin.com/company/dalim-software-gmbh/,,Java;React;Unix;Automation,Éditeur logiciel à Kehl avec offre fullstack et plateforme de production contenu.,
Degetel,ESN,Conseil digital;Mobile;Applications métier,Strasbourg,,48.5734,7.7521,,,https://www.linkedin.com/company/degetel,,Ruby;Ruby on Rails;Swift;SwiftUI;API REST;Git,Acteur digital avec offres backend Ruby et mobile iOS autour de Strasbourg.,
Expleo,Conseil,Ingénierie;Technologies;Transformation digitale,Entzheim,,48.5322,7.6349,https://expleo.com/global/en/,https://careers.expleo.com/en/,https://www.linkedin.com/company/expleo-group/,,C#;Angular;Ingénierie;Digital,Conseil ingénierie et technologies avec offre C#/Angular à Entzheim.,
Extia,ESN,Conseil IT;Digital;Développement logiciel,Strasbourg,,48.5734,7.7521,https://www.extia-group.com,https://www.extia-group.com/fr-en/join-us,https://www.linkedin.com/company/extia/,,C#;.NET;Tests unitaires;Frontend,ESN IT et digital avec offre développeur .NET à Strasbourg.,
Guarani,ESN,Services numériques;Conseil IT;Développement logiciel,Strasbourg,,48.5734,7.7521,,,https://fr.linkedin.com/company/guarani-fr,,Java;Angular,ESN avec offre Java/Angular à Strasbourg.,
Harry Hope,Conseil,Recrutement;RH;IT;Cabinet,Strasbourg,"48 rue du Vieux Marché aux Vins, 67000 Strasbourg",48.5842,7.7439,https://www.harry-hope.com/fr/en/agency/strasbourg/,,https://www.linkedin.com/company/harry-hope/,,PHP;Symfony;Sylius,Cabinet de recrutement à Strasbourg avec offre PHP/Symfony/Sylius.,
Hays France,Conseil,Recrutement;RH;IT;DevOps,Strasbourg,,48.5734,7.7521,https://www.hays.fr,https://www.hays.fr/jobs,https://fr.linkedin.com/company/hays,,Kubernetes;DevOps;Drupal,Cabinet de recrutement spécialisé avec offre IT/DevOps observée à Strasbourg.,
House Of Aby,Conseil,Ingénierie;Consulting;Digital;Solutions,Strasbourg,,48.5734,7.7521,https://houseofaby.com/en/group-4/,,https://fr.linkedin.com/company/houseofaby,,C#;.NET;Ingénierie;Consulting,Groupe de conseil et ingénierie avec offre .NET locale issue du fichier jobs.,
Icsis Nord,ESN,Conseil IT;AMOA;Développement;BI,Strasbourg,,48.5734,7.7521,http://www.icsis.fr,,https://fr.linkedin.com/company/icsis-est,,.NET;JavaScript;HTML;CSS;jQuery;SQL;COBOL,ESN avec offres fullstack et mainframe observées à Strasbourg.,
Inqom,SaaS,Comptabilité;Fintech;IA;Fiscalité,Paris,"8 rue Royale, 75008 Paris",48.8676,2.3229,https://www.inqom.com/,https://inqom.welcomekit.co/,https://www.linkedin.com/company/inqomapp,,C#;.NET;SQL;TypeScript;React;Azure;DDD;TDD,Éditeur SaaS comptable avec offre backend remote France dans le fichier jobs.,
MCA Groupe,Conseil,Ingénierie;High-tech;Digital;Conseil IT,Strasbourg,,48.5734,7.7521,https://mca-groupe.com,https://mca-groupe.com/en-us/applicants/jobs,https://www.linkedin.com/company/mca-france,,Angular;Ingénierie;High-tech,Conseil ingénierie et high-tech avec offre front Angular à Strasbourg.,
Reboot Conseil,Conseil,IA;Cybersécurité;Formation;Conseil IT,Strasbourg,,48.5734,7.7521,https://reboot-conseil.com,https://reboot-conseil.com/carrieres,https://www.linkedin.com/company/reboot-conseil/,,Java;Python;Go;C#;.NET;Azure;Angular,Conseil IT strasbourgeois avec offres fullstack et frontend.,
Storm Group,Conseil,Développement web;Python;API;Freelance,Strasbourg,,48.5734,7.7521,,,,,Python;FastAPI,Offre Python/FastAPI à Strasbourg dans le fichier jobs avec informations société limitées.,
Sully Group,ESN,Conseil IT;Applications métier;Projet;Agile,Strasbourg,,48.5734,7.7521,https://www.sully-group.com,https://www.sully-group.com/en/careers,https://fr.linkedin.com/company/sully-group,,.NET;Java;PHP;Agile;Gestion de projet,ESN avec bureau Strasbourg et offres applicatives/projet.,
Uni Systems,ESN,Intégration systèmes;Java;Cloud;Institutions européennes,Strasbourg,,48.5734,7.7521,https://www.unisystems.com,https://www.unisystems.com/careers,https://www.linkedin.com/company/unisystems,,Java;Kubernetes;Microservices;Architecture,Intégrateur IT avec offres Java et architecture à Strasbourg.,
Viveris,ESN,Conseil IT;Logiciel embarqué;Ingénierie;Systèmes,Strasbourg,,48.5734,7.7521,https://www.viveris.fr,https://www.viveris.fr/emplois/,https://www.linkedin.com/company/viveris/,,C#;.NET;Angular;PHP;Java;SQL;Agile,Conseil et ingénierie avec offres développeur à Strasbourg.,
Webnet,ESN,Web;Mobile;Applications métier;DevOps,Strasbourg,,48.5734,7.7521,https://www.webnet.fr,,https://www.linkedin.com/company/webnet/,,PHP;Symfony;Java EE;.NET;Angular;React;Ionic,ESN web/mobile avec offre PHP Symfony référencée dans le fichier jobs.,
Union Technologies Est,ESN,Conseil IT;Développement logiciel;Mobile,Strasbourg,,48.5734,7.7521,,,,,C#;.NET;Android;Swift;iOS;Ruby;Rails,Plusieurs offres locales dans le fichier jobs avec identité web non fiabilisée.,
Groupama Grand Est,Assurance,Assurance;IT;Data;Digital;Cybersécurité,Schiltigheim,"101 route de Hausbergen, 67300 Schiltigheim",48.6129,7.7411,https://www.groupama.fr/regions/grand-est/,https://www.groupama.fr/regions/grand-est/recrutement/,https://www.linkedin.com/company/groupama-grand-est/,,Java;.NET;SQL;Data;CRM;Cybersécurité;Infrastructure,Mutuelle d’assurance régionale avec siège/activité à Schiltigheim et besoins IT groupe/région.,
SOPREMA,Industrie,Construction;ERP;Data;Digital;Infrastructure,Strasbourg,"15 rue de Saint-Nazaire, 67025 Strasbourg",48.583,7.7169,https://www.soprema.fr,https://job.soprema.fr,https://www.linkedin.com/company/soprema/,,SAP;ERP;Data;BI;Infrastructure;Cybersécurité;Cloud,Groupe industriel strasbourgeois avec fonctions support SI et digital groupe.,
2CRSi,Hardware,HPC;Serveurs;Datacenter;Cloud;Infrastructure,Strasbourg,"32 rue Jacobi Netter, 67200 Strasbourg",48.5805,7.7015,https://2crsi.com,https://2crsi.com/fr/jobs,https://www.linkedin.com/company/2crsi/,,Linux;HPC;Cloud;Hardware;Réseaux;Datacenter;DevOps,Fabricant de serveurs haute performance basé à Strasbourg avec fonctions IT/infra/HPC.,
ALE International,Télécom,Réseaux;Communications;Cloud;IoT;R&D,Illkirch-Graffenstaden,"260 rue Léon Foucault, 67400 Illkirch-Graffenstaden",48.5297,7.7369,https://www.al-enterprise.com,https://jobs.al-enterprise.com,https://www.linkedin.com/company/alcatel-lucent-enterprise/,,C;C++;Python;Embedded;IoT;Réseaux;Cloud;Agile,Important site R&D télécom à Illkirch avec équipes software et validation.,
Schmidt Groupe,Industrie,Retail;Ameublement;CRM;Data;ERP,Lièpvre,"5 rue Clemenceau, 68660 Lièpvre",48.2718,7.2889,https://www.groupe.schmidt,https://www.groupe.schmidt/jobs/,https://www.linkedin.com/company/schmidt-groupe/,,SAP;ERP;CRM;Data;BI;E-commerce;PLM,Fabricant alsacien avec besoins SI/CRM/data dans le nord du Haut-Rhin.,
TRYBA,Industrie,Menuiserie;Retail;ERP;E-commerce;CRM,Gundershoffen,"Rue de l’Industrie, 67110 Gundershoffen",48.9064,7.6609,https://www.tryba.com,https://carrieres.tryba.com/,https://www.linkedin.com/company/tryba/,,ERP;CRM;E-commerce;Data;BI;Infrastructure,Marque du groupe ATRYA basée dans le nord du Bas-Rhin avec besoins SI groupe et digital.,
Les Grands Chais de France,Agroalimentaire,Vin;ERP;Logistique;Data;BI,Petersbach,"1 rue de la Division Leclerc, 67290 Petersbach",48.8708,7.2626,https://www.groupegcf.com,https://www.groupegcf.com/recrutement,https://www.linkedin.com/company/les-grands-chais-de-france/,,SAP;ERP;WMS;Data;BI;Infrastructure,Grand groupe agroalimentaire basé dans le Bas-Rhin avec SI logistique et ERP.,
Brasseries Kronenbourg,Agroalimentaire,Brasserie;Industrie;ERP;OT;Data,Obernai,"68 route d’Obernai, 67210 Obernai",48.4676,7.4817,https://www.brasseries-kronenbourg.com,https://www.brasseries-kronenbourg.com/recrutement,https://www.linkedin.com/company/brasseries-kronenbourg/,,MES;OT;ERP;SAP;Data;Infrastructure;Automatisation,Site industriel majeur à Obernai avec enjeux IT/OT et data industrielle.,
Ricoh Industrie France,Industrie,Impression;Industrie 4.0;Automatisation;Data,Wettolsheim,"144 route de Rouffach, 68920 Wettolsheim",48.0527,7.2984,https://www.ricoh.fr,https://www.ricoh.fr/carrieres,https://www.linkedin.com/company/ricoh-france/,,MES;OT;ERP;Data;Automatisation;BI;Lean IT,Site industriel proche Colmar avec besoins SI industriels et amélioration continue.,
Liebherr-France SAS,Industrie,Engins;Embedded;PLM;ERP;Data,Colmar,"2 avenue Joseph Rey, 68000 Colmar",48.0893,7.3585,https://www.liebherr.com,https://www.liebherr.com/fr/fra/carriere/carriere.html,https://www.linkedin.com/company/liebherr/,,C++;Embedded;PLM;ERP;Data;Automatisation;IoT,Site industriel du nord Haut-Rhin avec enjeux logiciel embarqué/PLM/IT industrielle.,
Knauf Industries France,Industrie,Plasturgie;ERP;Data;Automatisation;Logistique,Wolfgantzen,"Zone industrielle, 68600 Wolfgantzen",48.0276,7.5028,https://knauf-industries.com,https://knauf-industries.com/fr/carrieres/,https://www.linkedin.com/company/knauf-industries/,,ERP;MES;OT;Data;BI;WMS;Infrastructure,Industriel implanté en Alsace avec besoins SI/industrie/logistique.,
Dumarey Powerglide Strasbourg,Industrie,Automobile;ERP;OT;Data;Automatisation,Strasbourg,"81 rue de la Rochelle, 67100 Strasbourg",48.5481,7.7658,https://www.dumarey.com,https://www.dumarey.com/careers/,https://www.linkedin.com/company/dumarey-group/,,ERP;MES;OT;Automatisation;Data;SAP;Infrastructure,Site industriel automobile strasbourgeois avec enjeux IT/OT et production.,
ESARIS Industries,Industrie,Électronique;Embedded;IoT;Automatisation,Illkirch-Graffenstaden,,48.5296,7.7402,https://www.esaris.fr,https://www.esaris.fr/fr/carrieres/offres-emploi.html,https://www.linkedin.com/company/esaris-industries/,,C;C++;Embedded;IoT;Automatisation;ERP;OT,Site d’Illkirch orienté électromécanique/industrialisation avec besoins R&D et IT industrielle.,
Adista,Télécom,Cloud;Réseaux;Cybersécurité;Services managés,Strasbourg,,48.5734,7.7521,https://www.adista.fr,https://carrieres.adista.fr/fr/annonces,https://www.linkedin.com/company/adista/,,Cloud;Réseaux;Cybersécurité;VoIP;Infrastructure;Support,"Agence strasbourgeoise orientée services IT B2B, cloud, réseaux et cybersécurité.",
Free Pro,Télécom,Cloud;Télécom;Réseaux;Services IT,Strasbourg,,48.5734,7.7521,https://www.freepro.com,https://www.freepro.com/carrieres/,https://www.linkedin.com/company/free-pro/,,Cloud;Réseaux;Télécom;Infrastructure;Support;Cybersécurité,"Opérateur B2B avec services télécom, IT et cloud pour entreprises.",
SQLI,ESN,Digital;E-commerce;Software;Data,Strasbourg,,48.5734,7.7521,https://www.sqli.com/fr-fr,https://www.sqli.com/fr-fr/carriere,https://www.linkedin.com/company/sqli/,,Java;.NET;React;Angular;Cloud;Data;E-commerce,Acteur digital/ESN avec recrutements IT et opportunités projet possibles à Strasbourg.,
Smile Group,ESN,Open source;Web;Cloud;Data;E-commerce,Strasbourg,,48.5734,7.7521,https://www.smile.eu,https://jobs.smile.eu/,https://www.linkedin.com/company/smile/,,PHP;Symfony;Java;React;Angular;Drupal;Cloud;DevOps,ESN open-source avec offres IT nationales et projets numériques.,
Zenika,ESN,Software craftsmanship;Cloud;Data;DevOps,Strasbourg,,48.5734,7.7521,https://www.zenika.com,https://jobs.zenika.com/jobs,https://www.linkedin.com/company/zenika/,,Java;Kotlin;React;Angular;Cloud;DevOps;Data;Agile,"Cabinet tech spécialisé craft/cloud/data, à surveiller pour opportunités Grand Est/Strasbourg.",
Ippon Technologies,ESN,Software;Cloud;Data;Architecture;Agile,Strasbourg,,48.5734,7.7521,https://fr.ippon.tech,https://fr.ippon.tech/ippon/recrutement-tech/,https://www.linkedin.com/company/ippon-technologies/,,Java;Spring;React;Angular;AWS;GCP;DevOps;Data,ESN tech ayant ouvert une agence à Strasbourg et positionnée sur développement/cloud/data.,
Onepoint,Conseil,Transformation digitale;Cloud;Data;Architecture,Strasbourg,,48.5734,7.7521,https://www.groupeonepoint.com,https://www.groupeonepoint.com/fr/nous-rejoindre/,https://www.linkedin.com/company/groupe-onepoint/,,Cloud;Data;Architecture;Agile;Java;.NET;DevOps,Cabinet de conseil digital avec offres et missions possibles à Strasbourg.,
ALTEN,Conseil,Ingénierie;IT;Logiciel;Informatique industrielle,Strasbourg,,48.5734,7.7521,https://www.alten.fr,https://www.alten.fr/carriere/jobs/,https://www.linkedin.com/company/alten/,,C;C++;C#;.NET;Java;Embedded;Automatisation;Data,Société d’ingénierie recrutant sur profils IT/logiciel/industrie en région strasbourgeoise.,
Akkodis,Conseil,IT;Digital;Ingénierie;Informatique industrielle,Strasbourg,,48.5734,7.7521,https://www.akkodis.com/fr,https://www.akkodis.com/fr/emplois,https://www.linkedin.com/company/akkodis/,,C#;.NET;C++;Python;Automatisation;Data;Cloud;Embedded,Acteur IT/engineering avec offres en informatique industrielle et digital à Strasbourg.,
SEGULA Technologies,Conseil,Ingénierie;Industrie;IT;Automatisation,Strasbourg,,48.5734,7.7521,https://www.segulatechnologies.com/fr/,https://careers.segulatechnologies.com,https://www.linkedin.com/company/segula-technologies/,,Automatisation;OT;Data;C++;Embedded;PLM;ERP,"Ingénierie industrielle avec recrutements en Alsace/Strasbourg, utile pour informatique industrielle.",
Experis France,ESN,Infrastructure;Support;Cloud;Cybersécurité,Strasbourg,,48.5734,7.7521,https://experisfrance.fr,https://experisfrance.fr/emplois/,https://www.linkedin.com/company/experis-france/,,Support;Infrastructure;Cloud;Réseaux;Cybersécurité;ITSM,"Acteur services IT orienté support, infrastructure et infogérance avec offres locales possibles.",
Sogeti,ESN,Testing;Software;Cloud;Data;Conseil IT,Strasbourg,,48.5734,7.7521,https://www.fr.sogeti.com,https://www.fr.sogeti.com/carrieres/nous-rejoindre/,https://www.linkedin.com/company/sogeti/,,Java;.NET;Test;QA;Cloud;DevOps;Data,Filiale Capgemini spécialisée IT/testing avec historique de recrutement à Strasbourg.,
SCC France,ESN,Infrastructure;Cloud;Cybersécurité;Services managés,Strasbourg,,48.5734,7.7521,https://france.scc.com,https://france.scc.com/carrieres/,https://www.linkedin.com/company/scc-france/,,Infrastructure;Cloud;Réseaux;Cybersécurité;Support;ITSM,"Intégrateur IT orienté infrastructure, cloud et services managés avec recrutements IT.",
HELPLINE,ESN,Support IT;Service desk;Infrastructure;ITSM,Strasbourg,,48.5734,7.7521,https://www.helpline.fr,https://www.helpline.fr/carrieres/,https://www.linkedin.com/company/helpline/,,Support;ITSM;ServiceNow;Infrastructure;Réseaux;Cloud,Acteur expérience utilisateur IT/service desk avec recrutements support et production.,
Aubay,ESN,Transformation digitale;Software;QA;Data,Strasbourg,,48.5734,7.7521,https://aubay.com,https://aubay.com/carrieres/,https://www.linkedin.com/company/aubay/,,Java;.NET;QA;Cucumber;JIRA;Data;Cloud,ESN de transformation digitale avec offres IT et missions possibles à Strasbourg.,
CS GROUP,ESN,Systèmes critiques;Software;Cybersécurité;Défense,Strasbourg,,48.5734,7.7521,https://www.cs-soprasteria.com/fr/,https://careers.soprasteria.fr/jobs?brand=CS%20Group,https://www.linkedin.com/company/cs-group/,,C#;.NET;Java;C++;Cybersécurité;Cloud;Systèmes critiques,"Filiale Sopra Steria orientée systèmes critiques, avec offres software et cybersécurité.",
Blue Soft,ESN,Cloud;Infrastructure;Data;Applications métier,Strasbourg,,48.5734,7.7521,https://www.bluesoft-group.com,https://www.recrutement.bluesoft-group.com/offres-d-emploi-blue-soft/,https://www.linkedin.com/company/blue-soft-group/,,Cloud;Infrastructure;Data;DevOps;Agile;Applications métier,"Groupe IT orienté cloud, infra et applications métiers, opportunités à surveiller.",
sevDesk,SaaS,Comptabilité;Fintech;Software;Data,Offenburg,"Hauptstraße 115, 77652 Offenburg",48.4709,7.9426,https://www.sevdesk.com,https://www.sevdesk.com/career,https://www.linkedin.com/company/sevdesk-gmbh/,,PHP;JavaScript;TypeScript;React;Mobile;Data;Cloud,SaaS comptable basé à Offenburg avec équipes software engineering et data.,
NOVA Software GmbH,SaaS,Développement web;Apps;Logiciel sur mesure,Offenburg,"Senefelderstraße 4, 77656 Offenburg",48.469,7.9407,https://novasoftware.de,https://novasoftware.de/jobs/software-entwickler/,https://www.linkedin.com/company/nova-software-gmbh/,,C#;.NET;PHP;JavaScript;Web;Mobile;SQL,Éditeur/atelier logiciel à Offenburg recrutant des profils software.,
it-werke GmbH,SaaS,Biométrie;Sécurité;Paiement;Logiciel embarqué,Lahr,,48.3406,7.8681,https://www.it-werke.de,https://www.it-werke.de/jobs_und_karriere/,https://www.linkedin.com/company/it-werke/,,C;C++;Embedded;Biométrie;Sécurité;Testing;Hardware,"Entreprise de Lahr développant des solutions biométriques, paiement et processus digitaux.",
Printus GmbH,E-commerce,E-commerce;ERP;Data;WMS;IT,Offenburg,"Carl-Zeiss-Straße 1, 77656 Offenburg",48.4694,7.9565,https://www.printus.de,https://www.printus.de/karriere,https://www.linkedin.com/company/printus-gmbh/,,SAP;ERP;E-commerce;Frontend;Data;WMS;BI,"Groupe e-commerce/offices supplies à Offenburg avec besoins IT, e-commerce et data.",
WeberHaus GmbH & Co. KG,Industrie,Construction;SAP;ERP;Data;Automatisation,Rheinau-Linx,"Am Erlenpark 1, 77866 Rheinau-Linx",48.6667,7.9333,https://www.weberhaus.de,https://www.weberhaus.de/karriere/,https://www.linkedin.com/company/weberhaus-gmbh-&-co--kg/,,SAP;ABAP;ERP;Data;BI;Infrastructure,Industriel de Rheinau-Linx avec offres IT/SAP proches de Strasbourg.,
Badische Stahlwerke GmbH,Industrie,Sidérurgie;Web;ERP;Data;OT,Kehl,"Graudenzer Straße 45, 77694 Kehl",48.5744,7.8237,https://www.bsw-kehl.de,https://www.bsw-kehl.de/karriere/,https://www.linkedin.com/company/badische-stahlwerke-gmbh/,,Web;ERP;OT;Data;Automatisation;Infrastructure,Site industriel à Kehl avec besoins IT/OT et développement web interne.,
THERMOTEX Nagel GmbH,Industrie,Textile;RFID;Logiciel;ERP;IoT,Schutterwald,"Schutterstraße 14, 77746 Schutterwald",48.4578,7.8792,https://www.thermo-tex.de,https://www.thermo-tex.de/karriere/,https://www.linkedin.com/company/thermotex-nagel-gmbh/,,RFID;ERP;SQL;Web;IoT;Support;Data,Entreprise d’Ortenau avec solutions RFID/textile et besoins IT/logiciel.,
EDEKA Südwest,Retail,Retail;E-commerce;Data;ERP;Infrastructure,Offenburg,"Edekastraße 1, 77656 Offenburg",48.4686,7.9495,https://verbund.edeka/suedwest,https://verbund.edeka/suedwest/karriere/,https://www.linkedin.com/company/edeka-suedwest/,,SAP;ERP;Data;BI;E-commerce;Infrastructure;WMS,"Grand acteur retail basé à Offenburg avec SI logistique, data et applications métier.",
MackNeXT,Digital,Médias;XR;Jeux;3D;Logiciel,Rust,"Roland-Mack-Ring 1, 77977 Rust",48.2672,7.7209,https://macknext.com,https://macknext.com/career/,https://www.linkedin.com/company/macknext/,,Unity;Unreal;3D;XR;Web;Cloud;Game tech,"Studio digital du groupe Mack/Europa-Park à Rust, intéressant pour profils software/3D/XR.",